[
    {
     "regions": "EST",
     "city": "AMBATONDRAZAKA",
     "name": "VAHINE",
     "address": "LOT 20163 AVARADROVA NORD",
     "phone": "034 65&nbsp;431 21",
     "latitude": "-17.823774806823238",
     "longitude": "48.42553159999984"
    },
    {
     "regions": "EST",
     "city": "AMBATONDRAZAKA",
     "name": "ZAMA MEVA",
     "address": "LOT 8225 ANTSAHATATERAKA",
     "phone": "034 09&nbsp;598 18",
     "latitude": "-17.829842",
     "longitude": "48.425836"
    },
    {
     "regions": "EST",
     "city": "AMBATONDRAZAKA",
     "name": "MAX IRENE",
     "address": "Lot 24965 Madiotsifafana",
     "phone": "034 06&nbsp;752 20",
     "latitude": "-17.821382663642826 ",
     "longitude": "48.423403912075194"
    },
    {
     "regions": "EST",
     "city": "AMBATONDRAZAKA",
     "name": "LES TROIS COCOTIERS",
     "address": "hôtel les 3 cocotiers Avaradrova Ambatondrazaka",
     "phone": "034 86&nbsp;851 52"
    },
    {
     "regions": "EST",
     "city": "AMBATONDRAZAKA",
     "name": "HOTEL IRINAH",
     "address": "LOT 17390 AVARADROVA SUD AMBATONDRAZAKA",
     "phone": "034 04&nbsp;853 88"
    },
    {
     "regions": "EST",
     "city": "MAROANTSETRA",
     "name": "MANGA BEACH HOTEL",
     "address": "ANDROKAROKA",
     "phone": "0341119595 \/ 0325479504",
     "latitude": "-15.438623055400027 ",
     "longitude": "49.741550639009276"
    },
    {
     "regions": "EST",
     "city": "FOULPOINTE",
     "name": "HOTEL AZURA",
     "address": "RN5 PK50&nbsp;502 FOULPOINTE",
     "phone": "&nbsp;0320342066",
     "latitude": "-17.708783056414454 ",
     "longitude": "49.50920710836844"
    },
    {
     "regions": "EST",
     "city": "FENERIVE-EST",
     "name": "HOTEL DANIAL",
     "address": "LOT 51 A AMBATARIA FENERIVE EST",
     "phone": 344619172
    },
    {
     "regions": "EST",
     "city": "FENERIVE-EST",
     "name": "LE CHOIX ",
     "address": "LOT 70 M MERABOUT SAHAVOLA FENERIVE EST",
     "phone": 347168933,
     "latitude": "-17.37989312363999 ",
     "longitude": "49.40827333068816"
    },
    {
     "regions": "EST",
     "city": "TOAMASINA",
     "name": "HOTEL OCEAN 501",
     "address": "BOULEVARD RATSIMILAHO SALAZAMAY",
     "phone": "0326414743 \/ 0347785565",
     "latitude": "-18.125649759069987 ",
     "longitude": "49.408369939065764"
    },
    {
     "regions": "EST",
     "city": "TOAMASINA",
     "name": "HOTEL H1",
     "address": "HOTEL H1 RUE MARECHAL FOCH TOAMASINA",
     "phone": "0349482012 \/ 0340514874",
     "latitude": "-18.15427778",
     "longitude": "49.40994167"
    },
    {
     "regions": "EST",
     "city": "TOAMASINA",
     "name": "HOTEL JAVA",
     "address": "FACE FRIGOTA &nbsp;BD JOFFRE BAZARY BE TOAMASINA",
     "phone": 341225253,
     "latitude": "-18.156489",
     "longitude": "49.415651"
    },
    {
     "regions": "EST",
     "city": "TOAMASINA",
     "name": "HOTEL SPLENDIDE",
     "address": "AMBALAMANASY RN5 ROUTE AEROPORT TOAMASINA",
     "phone": "&nbsp;0334777828",
     "latitude": "-18.145481",
     "longitude": "49.405147"
    },
    {
     "regions": "EST",
     "city": "TOAMASINA",
     "name": "HOTEL SHARON",
     "address": "BOULEVARD DE LA LIBERATION TOAMASINA",
     "phone": 320530424,
     "latitude": "-18.151425",
     "longitude": "49.413627"
    },
    {
     "regions": "EST",
     "city": "TOAMASINA",
     "name": "HOTEL LA VERANDA",
     "address": "LOT 05 RUE LT. BERARD AMPASIMAZAVA OUEST TOAMASINA",
     "phone": "0341220886 \/ 0324911031",
     "latitude": "-18.15521474657077",
     "longitude": "49.415880039066494"
    },
    {
     "regions": "EST",
     "city": "TOAMASINA",
     "name": "HOTEL LE GRANITE",
     "address": "LOT 01 B MORAFENO PLLE 14\/33 TOAMASINA",
     "phone": 330119937,
     "latitude": "-18.137599307202247 ",
     "longitude": "49.40607381023004"
    },
    {
     "regions": "EST",
     "city": "TOAMASINA",
     "name": "HOTEL NY ANTSIKA",
     "address": "LOT A O 165 PLLE 13\/93 TANAMBAO V A COTE DE THOMAS BEVAN",
     "phone": "&nbsp;344090903\/347914032",
     "latitude": "-18.142961",
     "longitude": "49.397425"
    },
    {
     "regions": "EST",
     "city": "TOAMASINA",
     "name": "THE STREAMLINER HOTEL APARTMENT",
     "address": "LA RESIDENCE STREAMLINER PARCELLE 1214 TANAMAKOA",
     "phone": "&nbsp;0387514467 \/ 0326849108",
     "latitude": "-18.143232179554648",
     "longitude": "49.41007438509847"
    },
    {
     "regions": "EST",
     "city": "TOAMASINA",
     "name": "MAROTIA",
     "address": "HOTEL MAROTIA PARCELLE 32\/31 ANJOMA MPF  \/ A COTE DE L'ABATTOIR SUR LA PLAGE ",
     "phone": "&nbsp;0320432544 \/ 0348575808 ",
     "latitude": "-18.163019137183095",
     "longitude": "49.41438969673859"
    },
    {
     "regions": "EST",
     "city": "TOAMASINA",
     "name": "MIRAMAR",
     "address": "&nbsp;HOTEL MIRAMAR PARCELLE 1422 SALAZAMAY TOAMASINA",
     "phone": "&nbsp;0320245196",
     "latitude": "-18.129346",
     "longitude": "49.409744"
    },
    {
     "regions": "EST",
     "city": "TOAMASINA",
     "name": "RAVAKA HOTEL ",
     "address": "&nbsp;HOTEL RAVAKA PLLE 23\/12 CITE CANADA",
     "phone": 341286644,
     "latitude": "-18.1651333333333",
     "longitude": "49.4097611111111"
    },
    {
     "regions": "EST",
     "city": "TOAMASINA",
     "name": "CIRA HOTEL ",
     "address": "&nbsp;LOT CYRA HOTEL C2 PLLE 14 22 SALAZAMAY SUD",
     "phone": 345516920,
     "latitude": "-18.128866",
     "longitude": "49.405753"
    },
    {
     "regions": "EST",
     "city": "TOAMASINA",
     "name": "ANJARA HOTEL",
     "address": "&nbsp;VILLA GERMAINE PLLE 32\/23 CITE DES DOUANES",
     "phone": "0340770353 \/ 0341670453",
     "latitude": "-15.724462824297627 ",
     "longitude": "46.3097809120311"
    },
    {
     "regions": "EST",
     "city": "TOAMASINA",
     "name": "MELVILLE HOTEL",
     "address": "&nbsp;HOTEL MELVILLE MANGARIVOTRA",
     "phone": 320533180,
     "latitude": "-18.149931",
     "longitude": "49.392453"
    },
    {
     "regions": "EST",
     "city": "TOAMASINA",
     "name": "MIRAY HOTEL",
     "address": "&nbsp;HOTEL MIRAY CENTER BAZARY BE",
     "phone": 340760976,
     "latitude": "-18.157381728632092 ",
     "longitude": "49.41407268509869"
    },
    {
     "regions": "EST",
     "city": "TOAMASINA",
     "name": "HOTEL LE VOYAGEUR",
     "address": "&nbsp;LOT&nbsp; 316 BIS PLLE 23\/11 CITE CANADA",
     "phone": 344241752,
     "latitude": "-18.162615230833666 ",
     "longitude": "49.41383905441069"
    },
    {
     "regions": "EST",
     "city": "TOAMASINA",
     "name": "OCEAN D’OR",
     "address": "&nbsp;LOT 88 PLLE 13\/76 TANAMBAO V&nbsp; TOAMASINA",
     "phone": 320599999,
     "latitude": "-18.145481",
     "longitude": "49.405147"
    },
    {
     "regions": "EST",
     "city": "TOAMASINA",
     "name": "SUNNY GOLF HOTEL",
     "address": "RN5 ROUTE DE L'AEROPORT \/ PRES DE TOYOTA RASETA",
     "phone": "340415494 \/ 020 22 323 85",
     "latitude": "-18.109000750128704 ",
     "longitude": "49.39688775255735"
    },
    {
     "regions": "EST",
     "city": "TOAMASINA",
     "name": "HOTEL FLEURI",
     "address": "PRES DE JOVENA AMBALAMANASY",
     "phone": "&nbsp;0346636056",
     "latitude": "-18.12055",
     "longitude": "49.400019"
    },
    {
     "regions": "EST",
     "city": "TOAMASINA",
     "name": "PALM RESORT SARL",
     "address": "RESIDENCE HOME KING CN°2 PLLE 14\/21 SALAZAMAY NORD",
     "phone": "&nbsp;0340540587",
     "latitude": "-18.122825569439442 ",
     "longitude": "49.40427709673779"
    },
    {
     "regions": "EST",
     "city": "TOAMASINA",
     "name": "MARINA BEACH ",
     "address": "MARINA BEACH RESORT EN FACE DU RESTAURANT 501 SALAZAMAY",
     "phone": "0346140040 \/ 0320740440",
     "latitude": "-18.1252651515125",
     "longitude": "49.40800942186951"
    },
    {
     "regions": "EST",
     "city": "TOAMASINA",
     "name": "HOTEL NEPTUNE",
     "address": "&nbsp;35 BD RATSIMILAHO ",
     "phone": "&nbsp;0320753129",
     "latitude": "-18.15077",
     "longitude": "49.415901"
    },
    {
     "regions": "EST",
     "city": "TOAMASINA",
     "name": "HOTEL JOFFRE",
     "address": "&nbsp;BD JOFFRE AMPASIMAZAVA",
     "phone": "&nbsp;340732390\/205332390",
     "latitude": "-18.15863611",
     "longitude": "49.41636944"
    },
    {
     "regions": "EST",
     "city": "TOAMASINA",
     "name": "BERYL HOTEL",
     "address": "&nbsp;LOT 200 PLLE 13\/62 BERYL ROSE",
     "phone": 345591818,
     "latitude": "-18.149873",
     "longitude": "49.403973"
    },
    {
     "regions": "EST",
     "city": "TOAMASINA",
     "name": "NICA HOTEL",
     "address": "&nbsp;HOTEL NICA CITE DES DOUANES FACE HOPITALY KELY",
     "phone": "0332591243 \/ 0330832761",
     "latitude": "-18.15322061194568",
     "longitude": "49.40935966605021"
    },
    {
     "regions": "EST",
     "city": "TOAMASINA",
     "name": "HOTEL CALYPSO",
     "address": "&nbsp;RUE LIEUTENANT NOEL PLLE 32\/11 AMBODIMANGA",
     "phone": "&nbsp;0340713131",
     "latitude": "-18.150422",
     "longitude": "49.413311"
    },
    {
     "regions": "EST",
     "city": "TOAMASINA",
     "name": "HOTEL CHRETIEN (ANNEXE MELVILLE)",
     "address": "EN FACE DE L'HOTEL MELVILLE MANGARIVOTRA",
     "phone": 320533180,
     "latitude": "-18.150305",
     "longitude": "49.392381"
    },
    {
     "regions": "EST",
     "city": "SAINTE-MARIE",
     "name": "HOTEL AMORA ",
     "address": "AMBODIFOTATRA ",
     "phone": "0345830760 \/ 032 02&nbsp;578 09",
     "latitude": "-16.998753348248517",
     "longitude": "49.852491155811975"
    },
    {
     "regions": "EST",
     "city": "SAINTE-MARIE",
     "name": "HOTEL L’HERITAGE",
     "address": "AMBODIFOTATRA",
     "phone": "038 05&nbsp;275 58",
     "latitude": "-16.996950525118546 ",
     "longitude": "49.85089572369713"
    },
    {
     "regions": "EST",
     "city": "SAINTE-MARIE",
     "name": "HOTEL LA POLINA ",
     "address": "AMBODIFOTATRA",
     "phone": "34 451 23 92 261 \/032 85&nbsp;383 34",
     "latitude": "-16.99590596270322 ",
     "longitude": "49.850684839041215"
    },
    {
     "regions": "EST",
     "city": "SAINTE-MARIE",
     "name": "HOTEL L’IDYLLE BEACH",
     "address": "AMBODIFOTATRA",
     "phone": "034 83&nbsp;573 59 \/ 032 48 684 81",
     "latitude": "-16.995165001522672 ",
     "longitude": "49.85056199671321"
    },
    {
     "regions": "EST",
     "city": "SAINTE-MARIE",
     "name": "HOTEL LA MARINA",
     "address": "AMBODIFOTATRA",
     "phone": "034 17 259 96",
     "latitude": "- 16.99575858304013 ",
     "longitude": "49.8517067255492"
    },
    {
     "regions": "EST",
     "city": "MORAMANGA",
     "name": "ZOARA HOTEL",
     "address": "A côté de la station JOVENA CAMP DES MARIES MORAMANGA",
     "phone": "034 06 708 03 \/ 034 14&nbsp;170 87",
     "latitude": "-18.944315",
     "longitude": "48.22078"
    },
    {
     "regions": "EST",
     "city": "MORAMANGA",
     "name": "LA SAGESSE",
     "address": "PRES ESPACE TSARATOTO AMBOHITRANJAVIDY MORAMANGA",
     "phone": "034 89 792 43",
     "latitude": "-18.94844692242366 ",
     "longitude": "48.22431318015925"
    },
    {
     "regions": "EST",
     "city": "MORAMANGA",
     "name": "HOTEL HAZAVANA",
     "address": "En face BNI MORAMANGA VILLE MORAMANGA ",
     "phone": "&nbsp;034 15 705 00",
     "latitude": "-18.946486",
     "longitude": "48.228203"
    },
    {
     "regions": "EST",
     "city": "MORAMANGA",
     "name": "HOTEL BEZANOZANO",
     "address": "&nbsp;A côté de la station Shell MORAMANGA VILLE MORAMANGA",
     "phone": "034 15&nbsp;045 82",
     "latitude": "-18.94640323087553 ",
     "longitude": "48.23017741210052"
    },
    {
     "regions": "EST",
     "city": "MORAMANGA",
     "name": "RAVAKA HOTEL",
     "address": "&nbsp;LOT A 107&nbsp;CAMP DES MARIES MORAMANGA",
     "phone": "&nbsp;034 72 607 04",
     "latitude": "-18.944425",
     "longitude": "48.221142"
    },
    {
     "regions": "EST",
     "city": "MORAMANGA",
     "name": "HOTEL DIAMAND",
     "address": "En face de l’Eglise FJKM Moramanga-Fitiavana CAMP DES MARIES MORAMANGA",
     "phone": "&nbsp;034 26 773 90",
     "latitude": "-18.948699638536887 ",
     "longitude": "48.22438388141242"
    },
    {
     "regions": "EST",
     "city": "ANDASIBE",
     "name": "MANTADIA LODGE",
     "address": "&nbsp;Mantadia Lodge Andasibe MORAMANGA",
     "phone": "&nbsp;034 05 100 42",
     "latitude": "-18.9186",
     "longitude": "48.41559"
    },
    {
     "regions": "GRAND SUD",
     "city": "TOLIARA",
     "name": "MANATANE HOTEL",
     "address": "Boulevard Lyuatey Amorondriake",
     "phone": 347927433,
     "latitude": "-23.36090833",
     "longitude": "43.66925556"
    },
    {
     "regions": "GRAND SUD",
     "city": "TOLIARA",
     "name": "LE RECIF",
     "address": "Boulevard Lyuatey Amorondriake",
     "phone": 340537874,
     "latitude": "-23.36024113995285",
     "longitude": "43.66905901950918"
    },
    {
     "regions": "GRAND SUD",
     "city": "TOLIARA",
     "name": "AL SHAME",
     "address": "Boulevard Lyuatey Amorondriake",
     "phone": 340226724,
     "latitude": "-23.360267392134386 ",
     "longitude": "43.668483181524245"
    },
    {
     "regions": "GRAND SUD",
     "city": "TOLIARA",
     "name": "MARINA BLU",
     "address": "Boulevard Lyuatey Amorondriake",
     "phone": "347722233 - 0344226133",
     "latitude": "-23.35922363847329 ",
     "longitude": "43.66741670053827"
    },
    {
     "regions": "GRAND SUD",
     "city": "TOLIARA",
     "name": "LE PALETUVIER",
     "address": "Boulevard Lyuatey Amorondriake",
     "phone": "0347962044 - 0320254283",
     "latitude": "-23.356710796922545 ",
     "longitude": "43.66611304660479"
    },
    {
     "regions": "GRAND SUD",
     "city": "TOLIARA",
     "name": "AMAZONE HOTEL",
     "address": "Boulevard Lyuatey Amorondriake",
     "phone": "0342334056 - 0332287866",
     "latitude": "-23.356720091114358 ",
     "longitude": "43.66657840850797"
    },
    {
     "regions": "GRAND SUD",
     "city": "TOLIARA",
     "name": "LE RECIF ANNEXE",
     "address": "Boulevard Lyuatey Amorondriake",
     "phone": 345110452,
     "latitude": "-23.353574279346166 ",
     "longitude": "43.663397292633725"
    },
    {
     "regions": "GRAND SUD",
     "city": "TOLIARA",
     "name": "SAIFEE HOTEL",
     "address": "Tsianaloka près Collège Sacré Cœur",
     "phone": "0209441173 - 0320741906",
     "latitude": "-23.351643170126835 ",
     "longitude": "43.667424813110266"
    },
    {
     "regions": "GRAND SUD",
     "city": "TOLIARA",
     "name": "SERENA HOTEL",
     "address": "Toliara Centre",
     "phone": 341358197,
     "latitude": "-23.353410999494393 ",
     "longitude": "43.66802139022302"
    },
    {
     "regions": "GRAND SUD",
     "city": "TOLIARA",
     "name": "HYPPOCAMPO",
     "address": "Rue de France Mahavatse",
     "phone": 320310021,
     "latitude": "-23.366313778920002 ",
     "longitude": "43.6727992130747"
    },
    {
     "regions": "GRAND SUD",
     "city": "TOLIARA",
     "name": "LA BATISSE TULEAR (MIKEA LODGE)",
     "address": "Toliara Centre",
     "phone": "0340530300 - 0320341300",
     "latitude": "-23.353171537059016 ",
     "longitude": "43.668098769884274"
    },
    {
     "regions": "GRAND SUD",
     "city": "TOLIARA",
     "name": "SAPHIR HOTEL",
     "address": "Tanambao",
     "phone": 341154165,
     "latitude": "-23.35075368265316 ",
     "longitude": "43.670532056392304"
    },
    {
     "regions": "GRAND SUD",
     "city": "TOLIARA",
     "name": "EDEN PALM HOTEL",
     "address": "Tanambao",
     "phone": "0324020950 - 0341917807",
     "latitude": "-23.350949333476997 ",
     "longitude": "43.67086916988428"
    },
    {
     "regions": "GRAND SUD",
     "city": "TOLIARA",
     "name": "LE PALMIER (LE ZEBU PHILOSPHE)",
     "address": "Boulevard Branly Tanambao Morafeno",
     "phone": "0209441685 - 0346925775",
     "latitude": "-23.347966231479113 ",
     "longitude": "43.674964839195816"
    },
    {
     "regions": "GRAND SUD",
     "city": "TOLIARA",
     "name": "SOAVADIA MOTEL",
     "address": "Sanfil ",
     "phone": 347450213,
     "latitude": "-23.356537588133484 ",
     "longitude": "43.68276719872039"
    },
    {
     "regions": "GRAND SUD",
     "city": "TOLIARA",
     "name": "CHEZ ALAIN",
     "address": "Sanfil ",
     "phone": "0209444156 - 0321251100",
     "latitude": "- 23.356019059059307 ",
     "longitude": "43.68047899634224"
    },
    {
     "regions": "GRAND SUD",
     "city": "TOLIARA",
     "name": "MORINGA HOTEL",
     "address": "Face RM5 Tsianaloka",
     "phone": 340760015,
     "latitude": "-23.349389080586946 ",
     "longitude": "43.669649427556266"
    },
    {
     "regions": "GRAND SUD",
     "city": "TOLIARA",
     "name": "AUBERGE DE LA TABLE",
     "address": "Arbboretum Antsokay Ankoronga ",
     "phone": 349465479,
     "latitude": "-23.41340746692298 ",
     "longitude": "43.75562948152579"
    },
    {
     "regions": "GRAND SUD",
     "city": "TOLIARA",
     "name": "HOTEL VICTORY",
     "address": "Andabizy",
     "phone": 340203565,
     "latitude": "-23.36326828609796 ",
     "longitude": "43.69590431516467"
    },
    {
     "regions": "GRAND SUD",
     "city": "TOLIARA",
     "name": "ESCAPADE",
     "address": "Sanfil ",
     "phone": 320207873,
     "latitude": "-23.354256437648402 ",
     "longitude": "43.679856968032205"
    },
    {
     "regions": "GRAND SUD",
     "city": "TOLIARA",
     "name": "HOTEL MIHAJA BIS",
     "address": "Andabizy",
     "phone": "0326395569 - 0345332760",
     "latitude": "-23.3643752013415 ",
     "longitude": "43.695364027556614"
    },
    {
     "regions": "GRAND SUD",
     "city": "TOLIARA",
     "name": "CHEZ LALA",
     "address": "Route de Port Mahavatse",
     "phone": 324467689,
     "latitude": "-23.361990107175753 ",
     "longitude": "43.671413091622874"
    },
    {
     "regions": "GRAND SUD",
     "city": "RANOHIRA",
     "name": "LES ORCHIDEES",
     "address": "Plein centre Ranohira 313 Madagascar",
     "phone": 349690764,
     "latitude": "-22.556223314858833 ",
     "longitude": "45.414285954518654"
    },
    {
     "regions": "GRAND SUD",
     "city": "ISALO",
     "name": "ISALO ROCK LODGE",
     "address": "Isalo ",
     "phone": 340212308,
     "latitude": "-22.624115533486144 ",
     "longitude": "45.355949810340334"
    },
    {
     "regions": "GRAND SUD",
     "city": "ISALO",
     "name": "RELAIS DE LA REINE",
     "address": "Isalo ",
     "phone": 340212308,
     "latitude": "-22.644525453505672 ",
     "longitude": "45.33138951219294"
    },
    {
     "regions": "GRAND SUD",
     "city": "ISALO",
     "name": "JARDIN DU ROY",
     "address": "Isalo ",
     "phone": 340538718,
     "latitude": "-22.649157646791306 ",
     "longitude": "45.32967232568518"
    },
    {
     "regions": "GRAND SUD",
     "city": "IHOSY",
     "name": "HOTEL ORCHIDEE DE L ISALO",
     "address": "Ranohira Isalo",
     "phone": 320525775,
     "latitude": "-22.556213406740294 ",
     "longitude": "45.4143610563708"
    },
    {
     "regions": "GRAND SUD",
     "city": "IHOSY",
     "name": "HOTEL BERNY",
     "address": "Ranohira Isalo",
     "phone": 346290750,
     "latitude": "-22.556213655372893 ",
     "longitude": "45.413687852666484"
    },
    {
     "regions": "GRAND SUD",
     "city": "FORT DAUPHIN",
     "name": "HOTEL LE TOURNESOL",
     "address": "Esokaka",
     "phone": "331219765 - 0344015387",
     "latitude": "-25.026138096049973 ",
     "longitude": "46.98754115273534"
    },
    {
     "regions": "GRAND SUD",
     "city": "FORT DAUPHIN",
     "name": "RAVINALA HOTEL",
     "address": "Amparihy",
     "phone": 340521235,
     "latitude": "-25.02398961292027 ",
     "longitude": "46.99084563424332"
    },
    {
     "regions": "GRAND SUD",
     "city": "FORT DAUPHIN",
     "name": "TALINJOO HOTEL",
     "address": "Libanona",
     "phone": 341100188,
     "latitude": "-25.040769576028968 ",
     "longitude": "46.995685952971144"
    },
    {
     "regions": "GRAND SUD",
     "city": "FORT DAUPHIN",
     "name": "LE PORT HOTEL",
     "address": "Ampasikabo",
     "phone": 340523147,
     "latitude": "-25.02492073035957 ",
     "longitude": "46.990625398983774"
    },
    {
     "regions": "GRAND SUD",
     "city": "FORT DAUPHIN",
     "name": "HOTEL LA MARINA",
     "address": "Ampasikabo",
     "phone": 320541684,
     "latitude": "-25.027994899593406 ",
     "longitude": "46.990620328679825"
    },
    {
     "regions": "GRAND SUD",
     "city": "FORT DAUPHIN",
     "name": "HOTEL LE DAUPHIN",
     "address": "Ampotatra Taolagnaro 614",
     "phone": 346478794,
     "latitude": "-25.031786191344647 ",
     "longitude": "46.98971910646748"
    },
    {
     "regions": "GRAND SUD",
     "city": "FORT DAUPHIN",
     "name": "LE NEPENTHES HOTEL",
     "address": "Ampasikabo",
     "phone": 320541684,
     "latitude": "-25.02663109675272 ",
     "longitude": "46.98965075458746"
    },
    {
     "regions": "GRAND SUD",
     "city": "FORT DAUPHIN",
     "name": "HOTEL LA CROIX DU SUD",
     "address": "Boulevard 1 Ampotatra",
     "phone": "209221287 - 0347137002",
     "latitude": "-25.03095017299123 ",
     "longitude": "46.991092397478134"
    },
    {
     "regions": "GRAND SUD",
     "city": "FORT DAUPHIN",
     "name": "KALETA\/VINTANA HOTEL",
     "address": "Avenue Gallieni Tolagnaro",
     "phone": 342004933,
     "latitude": "-25.028449007361324 ",
     "longitude": "46.995830564149145"
    },
    {
     "regions": "GRAND SUD",
     "city": "FORT DAUPHIN",
     "name": "HOTEL DU PHARE",
     "address": "Ampasikabo",
     "phone": "209221117 - 0340221117",
     "latitude": "-25.026108931388467 ",
     "longitude": "46.99020190407502"
    },
    {
     "regions": "GRAND SUD",
     "city": "FORT DAUPHIN",
     "name": "AZURA HOTEL &amp; SPA",
     "address": "BP 284 -Ambohimazava Bazary Kely",
     "phone": "342976117 - 0344904506",
     "latitude": "-25.033599348285357",
     "longitude": "46.99361327335797"
    },
    {
     "regions": "GRAND SUD",
     "city": "FORT DAUPHIN",
     "name": "HOTEL RESTAURANT ANITA",
     "address": "Bazarikely",
     "phone": 343834656,
     "latitude": "-25.033322385317177 ",
     "longitude": "46.99380139876768"
    },
    {
     "regions": "GRAND SUD",
     "city": "FORT DAUPHIN",
     "name": "RESTAURANT CHEZ ROSII",
     "address": "Belamonty",
     "phone": 341686276,
     "latitude": "-25.02243839997235 ",
     "longitude": "46.98532308157113"
    },
    {
     "regions": "GRAND SUD",
     "city": "FORT DAUPHIN",
     "name": "RESTAURANT MAHAMANINA",
     "address": "Bazarikely",
     "phone": 340364532,
     "latitude": "-25.03367543249088 ",
     "longitude": "46.99118449691565"
    },
    {
     "regions": "GRAND SUD",
     "city": "FORT DAUPHIN",
     "name": "RESTAURANT MAMITIANA",
     "address": "Ampotatra Taolagnaro 614",
     "phone": 341103900,
     "latitude": "-25.033128051049122 ",
     "longitude": "46.99144763265574"
    },
    {
     "regions": "GRAND SUD",
     "city": "FORT DAUPHIN",
     "name": "RESTAURANT LOKALY",
     "address": "Amparihy",
     "phone": 349437081,
     "latitude": "-25.02500836508342",
     "longitude": "46.99179124561246"
    },
    {
     "regions": "GRAND SUD",
     "city": "FORT DAUPHIN",
     "name": "STADIUM RESTAURANT",
     "address": "Bazarikely",
     "phone": 389398896,
     "latitude": "-25.0347969666796 ",
     "longitude": "46.992553425751716"
    },
    {
     "regions": "GRAND SUD",
     "city": "FORT DAUPHIN",
     "name": "HOTEL LAVASOA",
     "address": "ANKOBA",
     "phone": 344591933
    },
    {
     "regions": "BOENY ",
     "city": "MAHAJANGA ",
     "name": "ANJARY HOTEL",
     "address": "Rue Georges Majunga Be",
     "phone": "0206223798",
     "latitude": "-15.724669",
     "longitude": "46.309686"
    },
    {
     "regions": "BOENY ",
     "city": "MAHAJANGA ",
     "name": "HOTEL KISMAT",
     "address": "Rue Docteur Bereni Majunga Be",
     "phone": "0320473561",
     "latitude": "-15.724205",
     "longitude": "46.311999"
    },
    {
     "regions": "BOENY ",
     "city": "MAHAJANGA ",
     "name": "CENTRAL HOTEL",
     "address": "Rue Henri Paul Majunga Be",
     "phone": "0326942293",
     "latitude": "-15.72322",
     "longitude": "46.312691"
    },
    {
     "regions": "BOENY ",
     "city": "MAHAJANGA ",
     "name": "HOTEL VIEUX BAOBAB",
     "address": "Rue Ggambette Majunga Be",
     "phone": "0340722035",
     "latitude": "-15.723567",
     "longitude": "46.31160623001237"
    },
    {
     "regions": "BOENY ",
     "city": "MAHAJANGA ",
     "name": "HOTEL 5\/5",
     "address": "Ampasika Centre Ville ",
     "phone": "0206222372",
     "latitude": "-18.548647",
     "longitude": "47.61626185294817"
    },
    {
     "regions": "BOENY ",
     "city": "MAHAJANGA ",
     "name": "PATEL HOTEL",
     "address": "Mahabibokely",
     "phone": "0328082277\/ 0327302541",
     "latitude": "-15.713210 ",
     "longitude": "46.319444957664125"
    },
    {
     "regions": "BOENY ",
     "city": "MAHAJANGA ",
     "name": "HOTEL CHEZ KARON",
     "address": "Village Touristique ",
     "phone": "0206222694",
     "latitude": "-15.707342",
     "longitude": "46.304869"
    },
    {
     "regions": "BOENY ",
     "city": "MAHAJANGA ",
     "name": "HOTEL SHAMS",
     "address": "Lot 0101BO 0048 Mangarivotra Majunga Be",
     "phone": "0340746199",
     "latitude": "-15.721214",
     "longitude": "46.310833"
    },
    {
     "regions": "BOENY ",
     "city": "MAHAJANGA ",
     "name": "HOTEL MIEL",
     "address": "Village Touristique ",
     "phone": "0343207872",
     "latitude": "-15.707317",
     "longitude": "46.3047284"
    },
    {
     "regions": "BOENY ",
     "city": "MAHAJANGA ",
     "name": "HOTEL LE BADAMIER ",
     "address": "Avenue de la Republique Majunga Be",
     "phone": "0206224065",
     "latitude": "-15.72275",
     "longitude": "46.310453248802574"
    },
    {
     "regions": "BOENY ",
     "city": "MAHAJANGA ",
     "name": "HOTEL KANTO ",
     "address": "La Corniche Majunga Be",
     "phone": "0341173600 \/ 0320293549",
     "latitude": "-15.715827 ",
     "longitude": "46.300520712030846"
    },
    {
     "regions": "BOENY ",
     "city": "MAHAJANGA ",
     "name": "HOTEL DU PHARE",
     "address": "Boulevard La Corniche",
     "phone": 320338314,
     "latitude": "-15.715054",
     "longitude": "46.300983"
    },
    {
     "regions": "BOENY ",
     "city": "MAHAJANGA ",
     "name": "HOTEL ESCALE DE LA PLAGE",
     "address": "Village Touristique ",
     "phone": 206222141,
     "latitude": "-15.707650525722418 ",
     "longitude": "46.306420152506604"
    },
    {
     "regions": "BOENY ",
     "city": "MAHAJANGA ",
     "name": "HOTEL BAOBAB TREE",
     "address": "BP 522 Boulevard La Corniche",
     "phone": "0206224172",
     "latitude": "-15.717500",
     "longitude": "46.301294739014786"
    },
    {
     "regions": "BOENY ",
     "city": "MAHAJANGA ",
     "name": "HOTEL COCOLODGE",
     "address": "49 Avenue DE France Majunga Be",
     "phone": "0340701111",
     "latitude": "-15.72180",
     "longitude": "46.30917643901479"
    },
    {
     "regions": "BOENY ",
     "city": "MAHAJANGA ",
     "name": "FISHING RESIDENCE",
     "address": "58 Boulevard Marcoz La Corniche",
     "phone": "0320516093",
     "latitude": "-15.712775154",
     "longitude": "46.30193352737485"
    },
    {
     "regions": "BOENY ",
     "city": "MAHAJANGA ",
     "name": "MASOANDRO HOTEL",
     "address": "Route d' Amborovy EN face RASETA",
     "phone": "0337940096",
     "latitude": "-15.7081405",
     "longitude": "46.31972299668664"
    },
    {
     "regions": "BOENY ",
     "city": "MAHAJANGA ",
     "name": "HOTEL BOUTON D'OR",
     "address": "Abattoir Marovato",
     "phone": "0327402157",
     "latitude": " -15.7167",
     "longitude": "46.3167"
    },
    {
     "regions": "BOENY ",
     "city": "MAHAJANGA ",
     "name": "SALAMA ROSE",
     "address": "Avenue de Comore Mahabibo",
     "phone": "0320234596",
     "latitude": -1572235,
     "longitude": 4632061
    },
    {
     "regions": "BOENY ",
     "city": "MAHAJANGA ",
     "name": "MAEVA HOTEL",
     "address": "Avenue d'AMBOROVY",
     "phone": "INTROUVABLE",
     "latitude": "-15.68911",
     "longitude": "46.33133"
    },
    {
     "regions": "BOENY ",
     "city": "MAHAJANGA ",
     "name": "BIG FAMILY",
     "address": "Manga",
     "phone": "INTROUVABLE",
     "latitude": -1571358,
     "longitude": 4631939
    },
    {
     "regions": "BOENY ",
     "city": "MAHAJANGA ",
     "name": "HOTEL EDENA KELY",
     "address": "Petit PLAGE AMBOROVY",
     "phone": "0325555800",
     "latitude": "-15.6635377",
     "longitude": "46.326454069"
    },
    {
     "regions": "BOENY ",
     "city": "MAHAJANGA ",
     "name": "HOTEL COCOBEACH",
     "address": "Maroala AMBOROVY",
     "phone": "0346977115",
     "latitude": "-15.673986",
     "longitude": "46.323543782"
    },
    {
     "regions": "BOENY ",
     "city": "MAHAJANGA ",
     "name": "ZAHAMOTEL",
     "address": "Petit PLAGE AMBOROVY",
     "phone": "0206223709",
     "latitude": "-15.667909",
     "longitude": "46.324124154"
    },
    {
     "regions": "BOENY ",
     "city": "MAHAJANGA ",
     "name": "HOTEL BLUEBAY",
     "address": "Maroala AMBOROVY",
     "phone": "0347356340",
     "latitude": "-15.6846765",
     "longitude": "46.318859125"
    },
    {
     "regions": "BOENY ",
     "city": "MAHAJANGA ",
     "name": "HOTEL LES 3 DAUPHINS",
     "address": "Maroala AMBOROVY",
     "phone": "INTROUVABLE"
    },
    {
     "regions": "BOENY ",
     "city": "MAHAJANGA ",
     "name": "GUEST",
     "address": "La Corniche Majunga Be",
     "phone": "0324711588",
     "latitude": "-15.71958",
     "longitude": "46.303427895"
    },
    {
     "regions": "BOENY ",
     "city": "MAHAJANGA ",
     "name": "ROCHESROUGES",
     "address": "Boulevard Marcoz",
     "phone": "0320587581",
     "latitude": "-15.71322",
     "longitude": "46.302518867"
    },
    {
     "regions": "BOENY ",
     "city": "MAHAJANGA ",
     "name": "HOTEL PETIT COUR ",
     "address": "Boulevard Marcoz",
     "phone": "0326554450",
     "latitude": "-15.7169",
     "longitude": "46.301349089189"
    },
    {
     "regions": "BOENY ",
     "city": "MAHAJANGA ",
     "name": "MON CHOISI HOTEL",
     "address": "Avenue Bariday",
     "phone": "0327581005",
     "latitude": "-15.72159",
     "longitude": "46.3245920120"
    },
    {
     "regions": "BOENY ",
     "city": "MAHAJANGA ",
     "name": "MADA HOTEL",
     "address": "Mahabibo Bazar BE",
     "phone": "INTROUVABLE"
    },
    {
     "regions": "BOENY ",
     "city": "MAHAJANGA ",
     "name": "MADJESTI PALM",
     "address": "AMBONDRONA",
     "phone": "0346137985",
     "latitude": "-15.69187050",
     "longitude": "46.33376079853845"
    },
    {
     "regions": "BOENY ",
     "city": "MAHAJANGA ",
     "name": "BAHATI HOTEL ",
     "address": "Marovato ABATTOIR",
     "phone": "0324328446",
     "latitude": " -15.72192123 ",
     "longitude": "46.322197354359"
    },
    {
     "regions": "BOENY ",
     "city": "MAHAJANGA ",
     "name": "KARIBU LODGE",
     "address": "Boulevard Marcoz",
     "phone": "0206224705",
     "latitude": "-15.71443288",
     "longitude": "46.30046041017871"
    },
    {
     "regions": "BOENY ",
     "city": "MAHAJANGA ",
     "name": "HOTEL AKBAR",
     "address": "Avenue Gillon Majunga Be",
     "phone": "0206222255",
     "latitude": "-15.723761405",
     "longitude": "46.30678435250676"
    },
    {
     "regions": "BOENY ",
     "city": "MAHAJANGA ",
     "name": "HATEL MARUTI",
     "address": "Avenue Gillon Majunga Be",
     "phone": "INTROUVABLE",
     "latitude": "-15.72369218728659 ",
     "longitude": "46.30654809668694"
    },
    {
     "regions": "BOENY ",
     "city": "MAHAJANGA ",
     "name": "NEW PARC RESORT",
     "address": "Avenue d'AMBOROVY",
     "phone": "0345274363",
     "latitude": "-15.676786618804805 ",
     "longitude": "46.337836139729596"
    },
    {
     "regions": "BOENY ",
     "city": "MAHAJANGA ",
     "name": "HOTEL ANTSANITIA",
     "address": "ANTSANITIA ",
     "phone": "0206291100",
     "latitude": "-15.564711781026066 ",
     "longitude": "46.42239233961798"
    },
    {
     "regions": "BOENY ",
     "city": "MAHAJANGA ",
     "name": "MITIA HOTEL",
     "address": "BELINTA AMBOROVY",
     "phone": "0340163311",
     "latitude": "-15.65285418923484",
     "longitude": "46.33687102379944"
    },
    {
     "regions": "BOENY ",
     "city": "MAHAJANGA ",
     "name": "PIETRA HOTEL ",
     "address": "Avenue Andriamisara Majunga Be",
     "phone": "0326653916"
    },
    {
     "regions": "BOENY ",
     "city": "MAHAJANGA ",
     "name": "SAARA HOTEL",
     "address": "LOT 0204AN 0340 Amborovy",
     "phone": "0329601583",
     "latitude": "-15.670685748381288 ",
     "longitude": "46.34399569853817"
    },
    {
     "regions": "BOENY ",
     "city": "MAHAJANGA ",
     "name": "HOTEL CONTINENTALE",
     "address": "5 avenue de la republique ",
     "phone": "0346961406",
     "latitude": "-15.722351485790643 ",
     "longitude": "46.31048796785091"
    },
    {
     "regions": "BOENY ",
     "city": "MAHAJANGA ",
     "name": "ANJARY HOTEL",
     "address": "Village Touristique ",
     "phone": "0332122244",
     "latitude": "-15.724504133578348 ",
     "longitude": "46.30975945435906"
    },
    {
     "regions": "BOENY ",
     "city": "MAHAJANGA ",
     "name": "HOTEL SOFIA SATRANA",
     "address": "TSARAMANDROSO",
     "phone": "0206222969",
     "latitude": "-15.712285397999912 ",
     "longitude": "46.317738740866844"
    },
    {
     "regions": "BOENY ",
     "city": "MAHAJANGA ",
     "name": "SOMAROALA",
     "address": "Bois sacré ",
     "phone": "0340457675",
     "latitude": "-15.694721727906051 ",
     "longitude": "46.31558575806276"
    },
    {
     "regions": "BOENY ",
     "city": "MAHAJANGA ",
     "name": "HOTEL SALALA",
     "address": "MAHABIBO",
     "phone": "0327860065",
     "latitude": "-15.713829243389405 ",
     "longitude": "46.31793798134269"
    },
    {
     "regions": "BOENY ",
     "city": "MAHAJANGA ",
     "name": "SALAMA HOTEL",
     "address": "MAHABIBOKELY",
     "phone": "0341121554"
    },
    {
     "regions": "BOENY ",
     "city": "MAHAJANGA ",
     "name": "HOTEL  ME SABAUD",
     "address": "Au centre pres de hotel de ville ",
     "phone": "0324053005",
     "latitude": "-15.717351",
     "longitude": "46.31889"
    },
    {
     "regions": "BOENY ",
     "city": "MAHAJANGA ",
     "name": "HOTEL LABIENVENUE",
     "address": "Majunga be ",
     "phone": "0340600359",
     "latitude": "-15.724048615690723 ",
     "longitude": "46.31321056970313"
    },
    {
     "regions": "BOENY ",
     "city": "MAHAJANGA ",
     "name": "SUNY HOTEL",
     "address": "Route d' Amborovy EN face RASETA",
     "phone": "324632614\/0332232385\/0340732388",
     "latitude": "-15.678081362759588 ",
     "longitude": "46.336552123669904"
    },
    {
     "regions": "BOENY ",
     "city": "MAHAJANGA ",
     "name": "DOLICE HOTEL",
     "address": "Ambalavola ",
     "phone": "INTROUVABLE"
    },
    {
     "regions": "BOENY ",
     "city": "MAHAJANGA ",
     "name": "HOTEL CHEZ TRANQUILLE",
     "address": "La Corniche Majunga Be",
     "phone": "0320752459",
     "latitude": "-15.718491381484508 ",
     "longitude": "46.304299813883"
    },
    {
     "regions": "BOENY ",
     "city": "MAHAJANGA ",
     "name": "HOTEL VILLA MENA",
     "address": "Androva ",
     "phone": "0324012758",
     "latitude": "-15.718499409106004",
     "longitude": "46.30620155435889"
    },
    {
     "regions": "BOENY ",
     "city": "MAHAJANGA ",
     "name": "LE MADRAS",
     "address": "Villa Paul Marie Amborovy",
     "phone": 206224815
    },
    {
     "regions": "BOENY ",
     "city": "MAHAJANGA ",
     "name": "HOTEL SKAR",
     "address": "Ex terrain de tennis boulevard Marcoz",
     "phone": "0344342224",
     "latitude": "-15.70852838285092 ",
     "longitude": "46.31334708134249"
    },
    {
     "regions": "BOENY ",
     "city": "MAHAJANGA ",
     "name": "HOTEL DE L'OUEST",
     "address": "En face tribunal",
     "phone": "0341003888",
     "latitude": "-15.722621131286209 ",
     "longitude": "46.30894825250679"
    },
    {
     "regions": "BOENY ",
     "city": "MAHAJANGA ",
     "name": "APPART HOTEL",
     "address": "PRES DE FOKONTANY AMBONDRONA AMBOROVY",
     "phone": "0347131177",
     "latitude": "-15.696908",
     "longitude": "46.336472"
    },
    {
     "regions": "BOENY ",
     "city": "MAHAJANGA ",
     "name": "HOTEL BELLA MARIA",
     "address": "Rue Henri Garnier Mahajanga ",
     "phone": "0341009752",
     "latitude": "-15.724005823648525",
     "longitude": "46.31119652552296"
    },
    {
     "regions": "BOENY ",
     "city": "MAHAJANGA ",
     "name": "MY SWEET RESIDENCY",
     "address": "LOT 0105U 0050A secteur 1 Port Sneider",
     "phone": "0346071128",
     "latitude": "-15.711068817229837 ",
     "longitude": "46.30278683901474"
    },
    {
     "regions": "BOENY ",
     "city": "MAHAJANGA ",
     "name": "HOTEL DE STADE",
     "address": "MANGARIVOTRA",
     "phone": "0331108835",
     "latitude": "-15.716508706986632 ",
     "longitude": "46.3156407966868"
    },
    {
     "regions": "BOENY ",
     "city": "MAHAJANGA ",
     "name": "SABA HOTEL",
     "address": "Avenue de la Liberation mangarivotra ",
     "phone": "0324126056",
     "latitude": "-15.71641774548831 ",
     "longitude": "46.31574521017871"
    },
    {
     "regions": "BOENY ",
     "city": "MAHAJANGA ",
     "name": "JET HOTEL",
     "address": "Antanimalandy SOTEMA",
     "phone": "0322677746"
    },
    {
     "regions": "BOENY ",
     "city": "MAHAJANGA ",
     "name": "ATHENAS HOTEL",
     "address": "AMBOROVY ",
     "phone": "0341853923",
     "latitude": "-15.683799",
     "longitude": "46.33528"
    },
    {
     "regions": "BOENY ",
     "city": "MAHAJANGA ",
     "name": "RESIDENCE SAPHIR",
     "address": "AMBOROVY",
     "phone": "0340239846"
    },
    {
     "regions": "BOENY ",
     "city": "MAHAJANGA ",
     "name": "HOTEL LE ROVA",
     "address": "Boulevard Marcoz Majunga ",
     "phone": "0340353143"
    },
    {
     "regions": "BOENY ",
     "city": "MAHAJANGA ",
     "name": "HOTEL KISMAT",
     "address": "Rue Docteur Beurni Majunga ",
     "phone": "0326969206",
     "latitude": "-15.7241537",
     "longitude": "46.31195708134282"
    },
    {
     "regions": "BOENY ",
     "city": "MAHAJANGA ",
     "name": "HOTEL DJOUMA",
     "address": "Avenue de Comore Mahabibo",
     "phone": "INTROUVABLE"
    },
    {
     "regions": "BOENY ",
     "city": "MAHAJANGA ",
     "name": "LEADER HOLIDAYS HOTEL",
     "address": "Amborovy Majunga ",
     "phone": "0348860369",
     "latitude": "-15.662861",
     "longitude": "46.337306"
    },
    {
     "regions": "BOENY ",
     "city": "MAHAJANGA ",
     "name": "SAMIRAH HOTEL",
     "address": "Grand pavois",
     "phone": 340366160
    },
    {
     "regions": "BOENY ",
     "city": "MAHAJANGA ",
     "name": "RAOF HOTEL",
     "address": "Rue M Ruefast Bostani Mahajanga",
     "phone": "0206222753",
     "latitude": "-15.721973877045171 ",
     "longitude": "46.312132740239434"
    },
    {
     "regions": "BOENY ",
     "city": "MAHAJANGA ",
     "name": "LOVENCIE LODGE",
     "address": "Grand pavois",
     "phone": "0342366160",
     "latitude": "-15.64016113117308  ",
     "longitude": "46.342709637161036"
    },
    {
     "regions": "BOENY ",
     "city": "MAHAJANGA ",
     "name": "HOEL LES OLVIERS ",
     "address": "LOT 0203U 0160 SOTEMA ANTANIMALANDY",
     "phone": "0323934895",
     "latitude": "-15.714918255464946 ",
     "longitude": "46.35796292367057"
    },
    {
     "regions": "BOENY ",
     "city": "MAHAJANGA ",
     "name": "SEATYZEN LODGE",
     "address": "AMBOROVY",
     "phone": "0326763446",
     "latitude": "-15.60458922212251 ",
     "longitude": "46.37379116784856"
    },
    {
     "regions": "BOENY ",
     "city": "MAHAJANGA ",
     "name": "CHEZ MIRTY HOTEL",
     "address": "BETAMANGA "
    },
    {
     "regions": "BOENY ",
     "city": "MAHAJANGA ",
     "name": "ANDAFIROI LODGE ",
     "address": "KATSEPI",
     "phone": "0330123456",
     "latitude": "-15.739223916647658",
     "longitude": "46.23998679749176"
    },
    {
     "regions": "BOENY ",
     "city": "MAHAJANGA ",
     "name": "HOTEL LES CAPUCINS",
     "address": "MAHABIBO KELY",
     "phone": 347131177,
     "latitude": "-15.712975",
     "longitude": "46.318925"
    },
    {
     "regions": "BOENY ",
     "city": "MAHAJANGA ",
     "name": "HOTEL LE BONHEUR",
     "address": "Antanimasaja Mahajanga ",
     "phone": "0324344527",
     "latitude": "-15.692046099486442 ",
     "longitude": "46.33376079853845"
    },
    {
     "regions": "BOENY ",
     "city": "MAHAJANGA ",
     "name": "HOTEL HOMEOPHARMA",
     "address": "Amborovy",
     "phone": "INTROUVABLE",
     "latitude": "-15.660362794542737 ",
     "longitude": "46.3308488236695"
    },
    {
     "regions": "BOENY ",
     "city": "MAHAJANGA ",
     "name": "LODGES DES TERRES BLANCHES",
     "address": "Baie de Mahajamba ",
     "phone": "0340706986",
     "latitude": "-15.723383786942438 ",
     "longitude": "46.30839291203103"
    },
    {
     "regions": "BOENY ",
     "city": "MAHAJANGA ",
     "name": "FAYAZ HOTEL",
     "address": "Rue Albert 1st Mahajanga Be ",
     "phone": "0324013101",
     "latitude": "-15.723451423464708 ",
     "longitude": "46.30822622643132"
    },
    {
     "regions": "BOENY ",
     "city": "ANTSOHIHY",
     "name": "HOTEL BELLE VUE",
     "address": "AMBALABE OUEST",
     "phone": 320250377,
     "latitude": "-14.897732317579433 ",
     "longitude": "47.98086726869029"
    },
    {
     "regions": "BOENY ",
     "city": "ANTSOHIHY",
     "name": "HOTEL VALIHA",
     "address": "AMBALABE OUEST",
     "phone": "O320250377",
     "latitude": "-14.877156244290129 ",
     "longitude": "47.98774298132629"
    },
    {
     "regions": "DIANA",
     "city": "DIEGO",
     "name": "ALLAMANDA ",
     "address": "RUE RICHELIEU VILLE BASSE PLACE KABARY ANTSIRANANA 201",
     "phone": 344414437,
     "latitude": "-12.267706346753918 ",
     "longitude": "49.290573352443936"
    },
    {
     "regions": "DIANA",
     "city": "DIEGO",
     "name": "LE GRAND HOTEL ",
     "address": "46 RUE COLBERT ANTSIRANANA 201",
     "phone": "0320784257 \/ 0322439352",
     "latitude": "-12.276664",
     "longitude": "49.291936"
    },
    {
     "regions": "DIANA",
     "city": "DIEGO",
     "name": "HOTEL LE VICTORIA",
     "address": "ANGLE RUE RIGAULT ET RUE GAUCHE ANTSIRANANA 201",
     "phone": 341122544,
     "latitude": "-12.270731"
    },
    {
     "regions": "DIANA",
     "city": "DIEGO",
     "name": "SOCIETE FIRDOSS",
     "address": "11 RUE LAVIGERIE ANTSIRANANA 201",
     "phone": 340775843
    },
    {
     "regions": "DIANA",
     "city": "DIEGO",
     "name": "HOTEL CONCORDE",
     "address": "&nbsp;67 RUE COLBERT ANTSIRANANA 201",
     "phone": 348190362,
     "latitude": "-12.275605",
     "longitude": "49.292351"
    },
    {
     "regions": "DIANA",
     "city": "DIEGO",
     "name": "LA TERRASSE DU VOYAGEUR",
     "address": "ANGLE RUE DE MOZABIQUE et JUSTIN BEZARA ANTSIRANANA 201",
     "phone": 382768514,
     "latitude": "-12.287247163859103 ",
     "longitude": "49.29092881196838"
    },
    {
     "regions": "DIANA",
     "city": "DIEGO",
     "name": "HOTEL DE LA POSTE ",
     "address": "Rue Boulevard Bazeilles ANTSIRANANA 201",
     "phone": 320478575,
     "latitude": "-12.268971",
     "longitude": "49.291862"
    },
    {
     "regions": "DIANA",
     "city": "DIEGO",
     "name": "HOTEL DE LA POSTE ANNEXE ",
     "address": "Rue Boulevard Bazeilles ANTSIRANANA 201",
     "phone": 320478575
    },
    {
     "regions": "DIANA",
     "city": "DIEGO",
     "name": "HOTEL IMPERIAL ",
     "address": "65 RUE COLBERT ANTSIRANANA 201",
     "phone": "0340529427 \/ 032052927",
     "latitude": "-12.27541667",
     "longitude": "49.29226944"
    },
    {
     "regions": "DIANA",
     "city": "DIEGO",
     "name": "KILAO'S HOTEL ",
     "address": "&nbsp;LOT 2 078 RUE LABIGORNE TANAMBAO IV 201 ANTSIRANANA",
     "phone": "0320239781 \/ 0341835525",
     "latitude": "-12.291067",
     "longitude": "49.289183"
    },
    {
     "regions": "DIANA",
     "city": "DIEGO",
     "name": "HOTEL MORAMORA ",
     "address": "7 Rue Sylvain Roux Bazarikely Antsiranana 201",
     "phone": "0325416053&nbsp;",
     "latitude": "-12.28371767756625",
     "longitude": "49.294001827312485"
    },
    {
     "regions": "DIANA",
     "city": "DIEGO",
     "name": "LE RICH HOTEL ",
     "address": "LOT 27 RUE MONT CALM BAZARIKELY ANTSIRANANA 201",
     "phone": 324762983,
     "latitude": "-12.290591518008513",
     "longitude": "49.29085703895226"
    },
    {
     "regions": "DIANA",
     "city": "DIEGO",
     "name": "A LA BELLE AVENTURE ",
     "address": "3 RUE FREPPEL AVENIR ANTSIRANANA 201",
     "phone": "381339179 \/ 329644076",
     "latitude": "-12.277357421382765",
     "longitude": "49.29387959477196"
    },
    {
     "regions": "DIANA",
     "city": "DIEGO",
     "name": "TSARA SARL ",
     "address": "40 BOULEVARD DE LA LIBERTE PLACE KABARY ANTSIRANANA 201",
     "phone": 341214949,
     "latitude": "-12.269971267938502 ",
     "longitude": "49.294465912866066"
    },
    {
     "regions": "DIANA",
     "city": "DIEGO",
     "name": "ETOILE DU NORD ",
     "address": "LOT 3 110 02 AVENUE VILARET JOYEUSES TANAMBAO TSENA",
     "phone": 322231929
    },
    {
     "regions": "DIANA",
     "city": "DIEGO",
     "name": "HASSANA Moukred Ismael",
     "address": "BOULEVARD TSIMIARO TANAMBAO ANTSIRANANA 201",
     "phone": 349144351
    },
    {
     "regions": "DIANA",
     "city": "AMBILOBE",
     "name": "HOTEL KOZOBE",
     "address": "ANORONALA A COTE BFV",
     "phone": 343820448,
     "latitude": " -13.185867355208789 ",
     "longitude": "49.053049994787365"
    },
    {
     "regions": "DIANA",
     "city": "AMBILOBE",
     "name": "MEVA HOTEL",
     "address": "ANORONALA ",
     "phone": 348400102,
     "latitude": "-12.267188975138053 ",
     "longitude": "49.358515281543625"
    },
    {
     "regions": "DIANA",
     "city": "AMBILOBE",
     "name": "FLORIDAS EDEN",
     "address": "ANORONALA",
     "phone": 328085811,
     "latitude": "-13.187814327134248 ",
     "longitude": "49.05142373711543"
    },
    {
     "regions": "DIANA",
     "city": "AMBILOBE",
     "name": "NOOR HOTEL",
     "address": "ANTAFIANKASAKA A COTE STATION JOVENA",
     "phone": 342246270,
     "latitude": "-13.191570201911336 ",
     "longitude": "49.05014315431167"
    },
    {
     "regions": "DIANA",
     "city": "AMBILOBE",
     "name": "MOUNA HOTEL",
     "address": "MATIAKOHO",
     "phone": 320515071,
     "latitude": "-13.19476760546217 ",
     "longitude": "49.05001454081974"
    },
    {
     "regions": "DIANA",
     "city": "AMBILOBE",
     "name": "HOTEL DIANA ",
     "address": "MATSABORILAIDAMA ",
     "phone": 340505533,
     "latitude": "-13.204164535192186 ",
     "longitude": "49.03122599664001"
    },
    {
     "regions": "DIANA",
     "city": "AMBILOBE",
     "name": "HOTEL ANNEXE DIANA",
     "address": "MATSABORILAIDAMA ",
     "phone": 340505533
    },
    {
     "regions": "DIANA",
     "city": "AMBILOBE",
     "name": "NATIONAL HOTEL",
     "address": "ANTAFIANKASAKA ",
     "phone": 329792870,
     "latitude": "-13.195620779680986 ",
     "longitude": "49.04941308314782"
    },
    {
     "regions": "DIANA",
     "city": "AMBILOBE",
     "name": "LE RELAIS DE L'ANKARANA",
     "address": "MAHAMASINA 40 KM DE LA VILLE",
     "phone": 344310408,
     "latitude": "-12.963777538708403 ",
     "longitude": "49.1430902812916"
    },
    {
     "regions": "DIANA",
     "city": "AMBILOBE",
     "name": "ANKARANA LODGE",
     "address": "MAHAMASINA 40 KM DE LA VILLE",
     "phone": 388100011,
     "latitude": "-12.963533121259164 ",
     "longitude": "49.14330503476375"
    },
    {
     "regions": "DIANA",
     "city": "AMBANJA",
     "name": "AXA ",
     "address": "Ambanja centre à l'étage du Boulangerie MOUNA",
     "phone": "320258174 \/ 344200646",
     "latitude": "-13.680810448249742",
     "longitude": "48.452620681304175"
    },
    {
     "regions": "DIANA",
     "city": "AMBANJA",
     "name": "HIBISCUS ",
     "address": "Ankatafahely en face Commune Urbaine Ambanja",
     "phone": 321106998,
     "latitude": "-13.680920378711255 ",
     "longitude": "48.45241135591685"
    },
    {
     "regions": "DIANA",
     "city": "AMBANJA",
     "name": "MARACCECH",
     "address": "Ambaibo en face UCLS Ambanja",
     "phone": "321106464 \/ 348220188",
     "latitude": "-13.679109498176516",
     "longitude": "48.44807458130414"
    },
    {
     "regions": "DIANA",
     "city": "NOSY BE",
     "name": "ZIGHY SARL",
     "address": "AMBATOLOAKA CHEZ MAISON YLANG",
     "phone": 387179282
    },
    {
     "regions": "DIANA",
     "city": "NOSY BE",
     "name": "HOTEL BARRACUDA",
     "address": "BEMOKO DZAMANDZAR ",
     "phone": "0348402480&nbsp;",
     "latitude": "-13.398992801883407 ",
     "longitude": "48.20756999664328"
    },
    {
     "regions": "DIANA",
     "city": "NOSY BE",
     "name": "HOTELS BELLE VUE NOSY BE",
     "address": "MADIROKELY",
     "phone": 327840862,
     "latitude": "-13.401859684812509 ",
     "longitude": "48.272902948624704"
    },
    {
     "regions": "DIANA",
     "city": "NOSY BE",
     "name": "MADA GREEN POWER(GREEN COOL)",
     "address": "AMBONARA AU MALL",
     "phone": 343540491,
     "latitude": "-13.399361807968505 ",
     "longitude": "48.27103278129922"
    },
    {
     "regions": "DIANA",
     "city": "NOSY BE",
     "name": "LE MOYA BEACH",
     "address": "AMPASIKELY DZAMANDAZAR",
     "phone": 349545687,
     "latitude": "-13.349471211862998",
     "longitude": "48.19013991198656"
    },
    {
     "regions": "DIANA",
     "city": "NOSY BE",
     "name": "EMALUC SARL",
     "address": "MADIROKELY",
     "phone": 320544544,
     "latitude": "-13.394910186494833 ",
     "longitude": "48.26622230577257"
    },
    {
     "regions": "DIANA",
     "city": "NOSY BE",
     "name": "NOSY LODGE",
     "address": "COCOTIER DZAMANDZAR",
     "phone": "327736496",
     "latitude": " -13.376218508356237 ",
     "longitude": "48.19398852362673"
    },
    {
     "regions": "DIANA",
     "city": "NOSY BE",
     "name": "MANGASOA LODGE ",
     "address": "ROUTE FASCENE",
     "latitude": "-13.317652244095692 ",
     "longitude": "48.34299111198594"
    },
    {
     "regions": "DIANA",
     "city": "NOSY BE",
     "name": "MANGAKELY SARLU",
     "address": "MADIROKELY",
     "phone": "320544544"
    },
    {
     "regions": "DIANA",
     "city": "NOSY BE",
     "name": "LE TRANSAT HOTEL ",
     "address": "AMBATOLOAKA NOSY BE",
     "phone": "340538905",
     "latitude": "-13.395203614493223",
     "longitude": "48.20575735431514"
    },
    {
     "regions": "DIANA",
     "city": "NOSY BE",
     "name": "CHEZ PAT ",
     "address": "AMBATOLOAKA",
     "phone": "327280846",
     "latitude": "-13.399529955196142 ",
     "longitude": "48.20733893897126"
    },
    {
     "regions": "DIANA",
     "city": "NOSY BE",
     "name": "HOTEL CAMBRIA",
     "address": "AMBONARA",
     "phone": "341139202",
     "latitude": "-13.39398530237372 ",
     "longitude": "48.26283909664309"
    },
    {
     "regions": "DIANA",
     "city": "NOSY BE",
     "name": "ROYAL BEACH HOTEL",
     "address": "DAR ES SALAM",
     "phone": "340532044",
     "latitude": "-13.392056997073785 ",
     "longitude": "48.20445323897116"
    },
    {
     "regions": "DIANA",
     "city": "NOSY BE",
     "name": "HOTEL LES BOUCANIERS",
     "address": "AMBATOLOAKA",
     "phone": "320267520",
     "latitude": "-13.400421829421251 ",
     "longitude": "48.20925499664337"
    },
    {
     "regions": "DIANA",
     "city": "NOSY BE",
     "name": "TATA HOTEL",
     "address": "EN FACE DE LA JIRAMA HELL VILLE",
     "phone": "341161379",
     "latitude": "-13.404420295990029 ",
     "longitude": "48.273766083151465"
    },
    {
     "regions": "DIANA",
     "city": "NOSY BE",
     "name": "HOTEL MAMABE",
     "address": "AMBODISAKOAGNA ",
     "phone": "320790420"
    },
    {
     "regions": "DIANA",
     "city": "NOSY BE",
     "name": "HOTEL ROSEWOOD ",
     "address": "MADIROKELY",
     "phone": "349095198"
    },
    {
     "regions": "DIANA",
     "city": "NOSY BE",
     "name": "HIOTEL ARC EN CIEL",
     "address": "AMPASIKELY DZAMANDAZAR",
     "phone": "324332472",
     "latitude": "-13.346596065609255",
     "longitude": "48.18967346780633"
    },
    {
     "regions": "DIANA",
     "city": "NOSY BE",
     "name": "RAHIMS HOTEL",
     "address": "SENGANINGA ",
     "phone": "344738399",
     "latitude": "-13.399711083638941 ",
     "longitude": "48.27132120629682"
    },
    {
     "regions": "DIANA",
     "city": "NOSY BE",
     "name": "HOTEL JARDIN D'EDEN",
     "address": "MADIROKELY",
     "phone": "329588561"
    },
    {
     "regions": "DIANA",
     "city": "NOSY BE",
     "name": "HOTEL BELLE VUE NOSY BE",
     "address": "AMBODISAKOAGNA ",
     "phone": "341161384",
     "latitude": "-13.401660535225629 ",
     "longitude": "48.2729363823378"
    },
    {
     "regions": "DIANA",
     "city": "NOSY BE",
     "name": "HOTEL ANJIAMARANGO",
     "address": "CAMP VERT",
     "phone": "320265598",
     "latitude": "-13.240732231053833 ",
     "longitude": "48.253531285000655"
    },
    {
     "regions": "DIANA",
     "city": "NOSY BE",
     "name": "HOTEL TROJY",
     "address": "DZAMANDZAR ",
     "phone": "326244756",
     "latitude": "-13.371055659618944 ",
     "longitude": "48.19578768184463"
    },
    {
     "regions": "DIANA",
     "city": "NOSY BE",
     "name": "ZEBOULON SARLU",
     "address": "AMBONDRONA",
     "phone": "327849046"
    },
    {
     "regions": "DIANA",
     "city": "NOSY BE",
     "name": "HOTEL SAFARI ",
     "address": "AMBATOLOAKA",
     "phone": "324553730"
    },
    {
     "regions": "DIANA",
     "city": "NOSY BE",
     "name": "HOTEL EXCORA BEACH",
     "address": "ORANGEA BEMOKO",
     "phone": "320220360",
     "latitude": "-13.322404247898374",
     "longitude": "48.185230938969895"
    },
    {
     "regions": "DIANA",
     "city": "NOSY BE",
     "name": "HOTEL ANDILANA BEACH RESSORT",
     "address": "ANDILANA",
     "phone": "346500014",
     "latitude": "-13.250911770189818 ",
     "longitude": "48.1910170696568"
    },
    {
     "regions": "DIANA",
     "city": "NOSY BE",
     "name": "HOTEL BELAMANDY LODGE",
     "address": "AMPORAHA",
     "phone": "328726712",
     "latitude": "-13.230300565282993 ",
     "longitude": "48.25202932362416"
    },
    {
     "regions": "DIANA",
     "city": "NOSY BE",
     "name": "HOTEL RAVITSARA ",
     "address": "ORANGEA BEMOKO",
     "phone": "345546231",
     "latitude": "-13.32399615000647 ",
     "longitude": "48.18451733897006"
    },
    {
     "regions": "DIANA",
     "city": "NOSY BE",
     "name": "AUBERGE RADAMA FICHING",
     "address": "AMBONDRONA",
     "phone": "320592525",
     "latitude": "-13.97162474458306 ",
     "longitude": "47.724891907659874"
    },
    {
     "regions": "DIANA",
     "city": "NOSY BE",
     "name": "HOTEL VANILA ",
     "address": "ORANGEA BEMOKO",
     "phone": "341500146",
     "latitude": "-13.320631885213963",
     "longitude": "48.18535554267414"
    },
    {
     "regions": "DIANA",
     "city": "NOSY BE",
     "name": "RÉSIDENCE AU SABLE",
     "address": "AMBATOLOAKA",
     "phone": "342800142",
     "latitude": "-13.390583921745531",
     "longitude": "48.20194093897112"
    },
    {
     "regions": "DIANA",
     "city": "NOSY BE",
     "name": "JEGSUN"
    },
    {
     "regions": "DIANA",
     "city": "NOSY BE",
     "name": "HOTEL COREIL NOIR",
     "address": "AMBARO ORANGEA",
     "phone": "320502039",
     "latitude": "-13.313435699791958 ",
     "longitude": "48.18375009664168"
    },
    {
     "regions": "DIANA",
     "city": "NOSY BE",
     "name": "ADVENTURE TOURS",
     "address": "DAR ES SALAM",
     "phone": "0320218207&nbsp;"
    },
    {
     "regions": "DIANA",
     "city": "NOSY BE",
     "name": "VILLA MAHITA TSARA",
     "address": "AMBARO ORANGEA",
     "latitude": "-13.365911877311477 ",
     "longitude": "48.1921840171546"
    },
    {
     "regions": "DIANA",
     "city": "NOSY BE",
     "name": "HOTEL GERARD ET FRANCINE",
     "address": "AMBATOLOAKA",
     "phone": "320712794",
     "latitude": "-13.400600282690103 ",
     "longitude": "48.207879111987396"
    },
    {
     "regions": "DIANA",
     "city": "NOSY BE",
     "name": "MADIRO HOTEL",
     "address": "MADIROKELY",
     "phone": "347070158",
     "latitude": "-13.393182923772777 ",
     "longitude": "48.208262796643155"
    },
    {
     "regions": "DIANA",
     "city": "NOSY BE",
     "name": "HOTEL ROYAL BEACH",
     "address": "DAR ES SALAM",
     "phone": "340532044",
     "latitude": "-13.392076594091302 ",
     "longitude": "48.204464788691844"
    },
    {
     "regions": "DIANA",
     "city": "NOSY BE",
     "name": "ODY HOTEL",
     "address": "AMBATOLOAKA",
     "phone": "325585748",
     "latitude": "-13.394641424910617 ",
     "longitude": "48.20739125431532"
    },
    {
     "regions": "DIANA",
     "city": "NOSY BE",
     "name": "AUBERGE TROPIQUE",
     "address": "MADIROKELY",
     "phone": "343926334",
     "latitude": "-13.387532492783038 ",
     "longitude": "48.19801153802518"
    },
    {
     "regions": "DIANA",
     "city": "NOSY BE",
     "name": "HOTEL MOMO ET JEANINE"
    },
    {
     "regions": "DIANA",
     "city": "NOSY BE",
     "name": "HOTEL LES VILLAS ORCHIDE",
     "address": "AMBATOLOAKA",
     "latitude": "-13.396952000130495 ",
     "longitude": "48.20827272291254"
    },
    {
     "regions": "DIANA",
     "city": "NOSY BE",
     "name": "HOTEL COUCHE DU SOLEIL",
     "address": "AMBATOLOAKA",
     "phone": "329599339",
     "latitude": "-13.397671557195098 ",
     "longitude": "48.20845525696114"
    },
    {
     "regions": "DIANA",
     "city": "NOSY BE",
     "name": "HOTEL CLAIR DE LUNE",
     "address": "AMBATOLOAKA",
     "latitude": "-13.39724198938485",
     "longitude": "48.21154229997014"
    },
    {
     "regions": "DIANA",
     "city": "NOSY BE",
     "name": "HOTEL CASA BLANCA",
     "address": "ORANGEA BEMOKO",
     "latitude": "-13.394772314100608 ",
     "longitude": "48.211579279447"
    },
    {
     "regions": "DIANA",
     "city": "NOSY BE",
     "name": "HOTEL L'HEUR BLEU",
     "address": "MADIROKELY",
     "phone": "345048443",
     "latitude": "-13.389155520631572 ",
     "longitude": "48.19739368315116"
    },
    {
     "regions": "DIANA",
     "city": "NOSY BE",
     "name": "LE ZAHIR HOTEL",
     "address": "MADIROKELY",
     "phone": "326857401",
     "latitude": "-13.38829966681316 ",
     "longitude": "48.19915321225855"
    },
    {
     "regions": "DIANA",
     "city": "NOSY BE",
     "name": "ELOIS"
    },
    {
     "regions": "DIANA",
     "city": "NOSY BE",
     "name": "VERO HOTEL"
    },
    {
     "regions": "DIANA",
     "city": "NOSY BE",
     "name": "JF HOTEL",
     "address": "CAMP VERT PRES CHAMBRE DE COMMERCE",
     "phone": "327984700",
     "latitude": "-13.40575486810357",
     "longitude": "48.275301762471926"
    },
    {
     "regions": "DIANA",
     "city": "NOSY BE",
     "name": "RICHAN HOTEL CHEZ ROZEMINE",
     "latitude": "-13.394172174616932 ",
     "longitude": "48.262844337921706"
    },
    {
     "regions": "DIANA",
     "city": "NOSY BE",
     "name": "HOTEL DE LA MER",
     "address": "CAMP VERT",
     "phone": "325692612"
    },
    {
     "regions": "DIANA",
     "city": "NOSY BE",
     "name": "NADINE GUEST HOUSE",
     "address": "la batterie R De Fortin Hell-Ville",
     "phone": "345807276",
     "latitude": "-13.404444732561558 ",
     "longitude": "48.27154383897131"
    },
    {
     "regions": "DIANA",
     "city": "NOSY BE",
     "name": "BEL HOTEL",
     "phone": "320502523",
     "latitude": "-13.392511867193079 ",
     "longitude": "48.270320810920516"
    },
    {
     "regions": "DIANA",
     "city": "NOSY BE",
     "name": "HOTEL D'AMBONARA",
     "address": "AMBONARA",
     "phone": "320247832"
    },
    {
     "regions": "DIANA",
     "city": "NOSY BE",
     "name": "HOTEL DIAMANT 10",
     "address": "R De Fortin Antsirambazaha",
     "phone": "340204070",
     "latitude": "-13.403855522371943 ",
     "longitude": "48.271510496643415"
    },
    {
     "regions": "DIANA",
     "city": "NOSY BE",
     "name": "HOTEL BONBONERA",
     "address": "AMBATOLOAKA",
     "phone": "328478590",
     "latitude": "-13.396978574240487 ",
     "longitude": "48.20702762547926"
    },
    {
     "regions": "DIANA",
     "city": "NOSY BE",
     "name": "HOTEL BATUMOCH",
     "address": "Ambatoloaka Beach Nosy Be 207 ",
     "phone": "340290911",
     "latitude": "-13.39959673113661 ",
     "longitude": "48.20721301674576"
    },
    {
     "regions": "DIANA",
     "city": "NOSY BE",
     "name": "HOTEL FLAMBOYANT",
     "address": "Ambatoloaka Nosy Be - En face de l’Hotel Barracuda",
     "phone": "320404373",
     "latitude": "-13.396065303529221",
     "longitude": "48.265686862484586"
    },
    {
     "regions": "DIANA",
     "city": "NOSY BE",
     "name": "HOTEL LA MAISON D'YLANG",
     "address": "Ambondrona Nord Nosy Be 207 ",
     "phone": "327849046",
     "latitude": "-13.372800542688692 ",
     "longitude": "48.190625138623666"
    },
    {
     "regions": "DIANA",
     "city": "NOSY BE",
     "name": "HOTEL COSTAL ET CIE",
     "address": "AMBATOLOAKA",
     "phone": "346037917"
    },
    {
     "regions": "DIANA",
     "city": "NOSY BE",
     "name": "HOTEL VANILA ",
     "address": "ORANGEA BEMOKO",
     "phone": "381500146",
     "latitude": "-13.320798928147187 ",
     "longitude": "48.185162423625776"
    },
    {
     "regions": "DIANA",
     "city": "NOSY BE",
     "name": "HOTEL LOHARANO",
     "address": "ORANGEA BEMOKO",
     "phone": "340472486",
     "latitude": "-13.318085046296074 ",
     "longitude": "48.18505821293399"
    },
    {
     "regions": "DIANA",
     "city": "NOSY BE",
     "name": "HOTEL BELVEDERE",
     "address": "Andilana Ampasy Nosy Be 207 ",
     "phone": "327675199",
     "latitude": "-13.251967346647263 ",
     "longitude": "48.18915523862366"
    },
    {
     "regions": "DIANA",
     "city": "NOSY BE",
     "name": "YLANG HOTEL",
     "address": "AMBONDRONA",
     "phone": "327849046",
     "latitude": "-13.360861375471277 ",
     "longitude": "48.30037482547864"
    },
    {
     "regions": "DIANA",
     "city": "NOSY BE",
     "name": "HOTEL PALM BEACH",
     "address": "AMBONDRONA",
     "phone": "320366607",
     "latitude": "-13.381672090213778 ",
     "longitude": "48.195450825478964"
    }
   ]